{
  "type": "FeatureCollection",
  "features": [
    {
      "type": "Feature",
      "properties": {
        "nimi": "yo",
        "kuvatiedot": "Öinen Kaisaniemi. Matti Honkavaara, 1971, HKM."
      },
      "geometry": {
        "type": "Point",
        "coordinates": [
          24.944211244583133,
          60.17381266650259
        ]
      }
    },
    {
      "type": "Feature",
      "properties": {
        "nimi": "suihkulahde",
        "kuvatiedot": "Kaisaniemi, Joutsenlampi. Tuntematon valokuvaaja, 1915, HKM."
      },
      "geometry": {
        "type": "Point",
        "coordinates": [
          24.94377136230469,
          60.1731002751657
        ]
      }
    },
    {
      "type": "Feature",
      "properties": {
        "nimi": "koira",
        "kuvatiedot": "F. Oskar Lindroos leikkii Truls -koiran kanssa ravintola Kaisaniemen pihalla. Tuntematon valokuvaaja, 1905, HKM."
      },
      "geometry": {
        "type": "Point",
        "coordinates": [
          24.94256973266602,
          60.17665407374073
        ]
      }
    },
    {
      "type": "Feature",
      "properties": {
        "nimi": "vappu",
        "kuvatiedot": "Vappu – 1. Maj. A/B R.E. Westerlund O/Y, 1920-1929, HKM."
      },
      "geometry": {
        "type": "Point",
        "coordinates": [
          24.94106769561768,
          60.176664745229466
        ]
      }
    },
    {
      "type": "Feature",
      "properties": {
        "nimi": "puisto",
        "kuvatiedot": "Kaisaniemi. Signe Brander, 1912, HKM."
      },
      "geometry": {
        "type": "Point",
        "coordinates": [
          24.946968555450443,
          60.173559195700115
        ]
      }
    },
    {
      "type": "Feature",
      "properties": {
        "nimi": "sorsat",
        "kuvatiedot": "Kaisaniemen lammikko, taustalla Kansallisteatteri (Onni Tarjanne, 1902). Signe Brander, 1912, HKM."
      },
      "geometry": {
        "type": "Point",
        "coordinates": [
          24.943127632141117,
          60.17359121317258
        ]
      }
    },
    {
      "type": "Feature",
      "properties": {
        "nimi": "luistinrata",
        "kuvatiedot": "Näkymä luistinradalta. Aarne Pietinen OY, 1938, HKM."
      },
      "geometry": {
        "type": "Point",
        "coordinates": [
          24.94179725646973,
          60.17546951693718
        ]
      }
    },
    {
      "type": "Feature",
      "properties": {
        "nimi": "unioninkatu",
        "kuvatiedot": "Kaisaniemen liikenneympyrä, Kaisaniemenkadun risteys. Unto Laitila 1966, HKM."
      },
      "geometry": {
        "type": "Point",
        "coordinates": [
          24.950165748596195,
          60.17389004141053
        ]
      }
    },
    {
      "type": "Feature",
      "properties": {
        "nimi": "kasvihuone",
        "kuvatiedot": "Kaisaniemen kasvihuone. Gustav Nyström, 1889, Aalto yliopiston arkisto."
      },
      "geometry": {
        "type": "Point",
        "coordinates": [
          24.945960044860843,
          60.175245406790275
        ]
      }
    },
    {
      "type": "Feature",
      "properties": {
        "nimi": "tivoli",
        "kuvatiedot": "Suomen Tivolin sisäänkäynnin porttirakennelma Suomen Suurkisoissa kesällä 1947 Kaisaniemessä. Tuntematon valokuvaaja 1947, Keravan museo."
      },
      "geometry": {
        "type": "Point",
        "coordinates": [
          24.943213462829593,
          60.17477583771459
        ]
      }
    },
    {
      "type": "Feature",
      "properties": {
        "nimi": "maenlasku",
        "kuvatiedot": "Lapsia laskemassa mäkeä Kaisaniemessä. Pekka Kyytinen, 1958, Museovirasto."
      },
      "geometry": {
        "type": "Point",
        "coordinates": [
          24.946131706237797,
          60.17354852320237
        ]
      }
    },
    {
      "type": "Feature",
      "properties": {
        "nimi": "kavely",
        "kuvatiedot": "Kaisaniemen puisto. G. Herlin, 1930–1939, HKM."
      },
      "geometry": {
        "type": "Point",
        "coordinates": [
          24.946850538253788,
          60.173916722371
        ]
      }
    },
    {
      "type": "Feature",
      "properties": {
        "nimi": "tulipalo",
        "kuvatiedot": "Tulipalo kasvitieteellisessä puutarhassa Kaisaniemessä. Pietinen, 1934, Museovirasto."
      },
      "geometry": {
        "type": "Point",
        "coordinates": [
          24.94799852371216,
          60.17517070306816
        ]
      }
    },
    {
      "type": "Feature",
      "properties": {
        "marker-color": "#7e7e7e",
        "marker-size": "medium",
        "marker-symbol": "",
        "nimi": "koulu",
        "kuvatiedot": "Kaisanniemen ala-asteen koulu. Helsingin kaupunki 1924. HKM."
      },
      "geometry": {
        "type": "Point",
        "coordinates": [
          24.948127269744873,
          60.173249691857556
        ]
      }
    },
    {
      "type": "Feature",
      "properties": {
        "nimi": "akrobaatit",
        "kuvatiedot": "Chester Dieckin polkupyöräakrobaattiryhmän 4 Chester Dieck naiset esiintymässä Kaisaniemen Tivolissa (=Suomen Tivoli) 27.6.1947. G. Vainio, 1947."
      },
      "geometry": {
        "type": "Point",
        "coordinates": [
          24.943138360977173,
          60.1748825585485
        ]
      }
    },
    {
      "type": "Feature",
      "properties": {
        "nimi": "kioski"
      },
      "geometry": {
        "type": "Point",
        "coordinates": [
          24.944264888763428,
          60.174354287030745
        ]
      }
    }
  ]
}
